Village,Latitude,Longitude,Distance,NDVI LOSS,Risk
Adar,22.81283085,86.09595276,29.02947738,0.184199049,0
Amma Bar,22.47056857,86.43367715,5.975615794,0.145989539,1
Anarbansalea,22.81042544,86.08610497,29.69782908,0.19497746,0
Baghpur,22.62196938,86.20520122,8.617294665,0.222725777,1
Bahadurpur,24.2424061,86.9922744,187.9542593,0.182511137,0
Bakri,22.81483077,86.0915322,29.52649199,0.186050458,0
Balia,25.0272473,87.3313598,281.416192,0.123459671,0
Balsora,22.6194454,86.22154453,6.917186334,0.232738821,1
Bara Khar,22.59693707,86.47995346,14.26301081,0.191418292,1
Baraha,22.61534912,86.21806911,7.179164767,0.236710549,1
Barahgawan,22.47067373,86.4362547,5.710976681,0.154421863,1
Barka Dhab,22.52308073,86.44898494,7.464355205,0.157282675,1
Barwadih,23.8019944,84.1661694,254.2453557,0.170768739,0
Basdiha,25.044169,87.3815203,285.0158023,0.014532798,0
Bataspur,22.47088358,86.43191638,6.158041961,0.142692638,1
Bela,23.306132,85.6542031,99.35212057,0.17597319,0
Beni Nagar,22.50802938,86.45747617,5.609593789,0.194143938,1
Bhadwar,22.821343,86.10289217,29.03734347,0.192673711,0
Bhadwar Digar,22.51403438,86.45695464,6.17228073,0.178221714,1
Bhangia,22.45879773,86.43160711,6.27947411,0.165850986,1
Bhikhanpur,22.59675765,86.47061154,14.19853536,0.173115886,1
Bhokaha,22.62591376,86.20923772,8.323482162,0.222310816,1
Bijhua,22.81384742,86.09271364,29.36432888,0.183549072,0
Bikua Kalan,22.6158298,86.21186751,7.817242474,0.235047001,1
Bikua Khurd,22.82347839,86.09711908,29.64852864,0.202084139,1
Bishunpur,23.4325504,84.3416423,219.4628314,0.258575255,1
Bodhi Bigha,22.81815292,86.09602515,29.37626748,0.191703196,0
Burha Burhi,22.60199336,86.47423774,14.29377484,0.210504953,1
Chahra Pahra,22.58962186,86.4771908,13.48452112,0.153987099,1
Chak Tikri,22.82824579,86.09528493,30.12480652,0.212999457,1
Chanariya,22.62612978,86.2059636,8.653741407,0.218530555,1
Chhakarbandha,22.62391633,86.20811667,8.376267793,0.225310354,1
Chhatarpur,24.334956,84.1630303,288.4641032,0.112107753,0
Chhotka Dhab,22.45447502,86.43377186,6.163993517,0.177778929,1
Chhotka Kewla,22.59734073,86.46500907,13.65447287,0.181137833,1
Chonha,22.82525411,86.08559058,30.70494524,0.183605379,0
Chorahi,24.5198323,85.4063407,226.5105592,0.121486462,0
Deuri,22.82947071,86.10189874,29.68578673,0.237094023,1
Dibhka,22.51414826,86.44481162,6.980022471,0.177110912,1
Dubat,22.63037247,86.20605474,8.783423444,0.220331782,1
Dumaria,22.415829,86.4078292,10.42530357,0.191913283,1
Gansha,22.50688191,86.44189058,6.651564943,0.179821194,1
Goti Bandh,22.6128517,86.20366407,8.612229378,0.217988546,1
Hariobara,22.51154022,86.45290241,6.208866478,0.18599728,1
Harni,24.5747486,85.9356921,215.9986046,0.163783582,0
Hurmeth,22.60083902,86.46424619,13.41228857,0.185947593,1
Jagat Khap,22.51533882,86.45179981,6.606493712,0.171338455,1
Jagatpur,24.9871375,87.2249111,273.538088,0.165339939,0
Jhangat,22.82779305,86.09022304,30.50031571,0.197087825,0
KOlsaita,24.4233826,84.3281981,282.4140407,0.136531714,0
Kabisa,22.58394294,86.47179705,12.93585848,0.17636179,1
Kachar,22.81207728,86.1025631,28.43507625,0.17257068,0
Karhanni,22.60143318,86.47771908,14.64712442,0.219068464,1
Karman,22.82489905,86.08726252,30.54452921,0.188081516,0
Kathautia,24.3999941,84.301327,282.6379669,0.117914545,0
Kewla Kalan,22.58813198,86.48084895,13.28365699,0.157781391,1
Khaira,25.101667,87.4828919,294.8308501,0.134691543,0
Khardag,22.45366252,86.43446401,6.118836692,0.180578394,1
Kokna,22.59946926,86.47934023,14.54780953,0.206153135,1
Koldaga,22.60308786,86.46404488,13.28748028,0.194171244,1
Kolhubar,22.51797953,86.45627891,6.571579253,0.165750212,1
Kundari,22.59117674,86.46718878,13.80606639,0.17565016,1
Kunria,22.46674546,86.42888918,6.46775937,0.138573002,1
Kusari,22.58328611,86.47022447,12.89078557,0.183847822,1
LOn Chak,22.82236597,86.10319625,29.083878,0.197198482,0
Lataha,22.62121612,86.21437981,7.679172882,0.235224416,1
Londa,22.4638123,86.44329356,5.01018009,0.172869883,1
Madarpur,22.51826073,86.44375317,7.388117142,0.166367894,1
Mahjari,22.50833517,86.45015576,6.134966555,0.181680698,1
Mahuri,24.4112391,84.3455098,280.2143721,0.096428173,0
Maigara,22.52630719,86.4453815,7.971939703,0.163322473,1
Majhauli,22.62578903,86.22253947,7.015703292,0.227225161,1
Majhgawan,22.59775055,86.46736836,13.85084031,0.178025408,1
Manrar,22.82745329,86.08475121,30.92110881,0.186590494,0
Mataha,22.58372064,86.47044872,12.93427501,0.181937415,1
Maun Bar,22.4645455,86.43726106,5.620868597,0.158071896,1
Mayapur,23.5065281,85.3719556,135.4546161,0.149984824,0
Milki,22.61802292,86.20438996,8.614998068,0.21841851,1
Nabigarh,22.61622085,86.21343212,7.665212057,0.237508694,1
Nagahari,22.52633746,86.45105588,7.64002097,0.157323131,1
Nanai,22.4606969,86.43276257,6.128786934,0.162881096,1
Narayanpur,24.0435834,86.5806128,155.7406112,0.089135171,0
Nonisat,22.6291308,86.21929348,7.456167751,0.227921742,1
Pachmah,22.81919088,86.08822349,30.08608962,0.179325688,0
Pakharpur,22.59870729,86.4766228,14.49100512,0.197566927,1
Pankara,22.63002143,86.20575897,8.799930972,0.219783049,1
Pathra,25.0130119,87.5618347,289.1905442,0.183160829,0
Patkhaulia,22.59657659,86.47432553,14.28407711,0.176918434,1
Phulwaria,24.4689182,85.7413387,209.2387094,0.116364392,0
Piparwar,23.7353878,85.0525323,176.5817892,0.140044415,0
Pipra,24.4751581,84.1708309,298.0262307,0.086103467,0
Purkhan Chak,22.47303769,86.44326787,5.008694855,0.171276247,1
Rabda,24.0522617,83.9257755,289.5637572,0.148653924,0
Rabdi,22.62978501,86.21778129,7.627265234,0.22970867,1
Rachhia,22.4627304,86.42980713,6.403189004,0.146306701,1
Rajbalia,24.4092174,84.351876,279.5918953,0.078071559,0
Ramdohar,22.82641198,86.09411841,30.09164532,0.206563861,1
Rampur,25.0173969,87.6926393,295.5694842,0.185955552,0
Saita,22.81297384,86.08823217,29.68121635,0.194939507,0
Salaiya,23.9457528,85.394336,171.4367033,0.135505276,0
Sendwaria,22.60182608,86.46895066,13.80431953,0.198552683,1
Sewra,22.46942502,86.44740085,4.560146489,0.174350029,1
Sidhpur,22.61382897,86.20809823,8.171001208,0.225654066,1
Sihauta,22.59398241,86.46599444,13.91650723,0.178140013,1
Sildilia,22.60229989,86.47819943,14.65529405,0.22486717,1
Simari,22.52558819,86.44733264,7.788916231,0.163153987,1
Simri,22.81518194,86.09469357,29.28808845,0.187318869,0
Singh Pur,22.51362346,86.44223776,7.124879867,0.177296895,1
Sonpura,24.5039219,83.7967791,329.1472319,0.123347801,0
Sujji Kalan,22.52496885,86.4484612,7.665477908,0.160547768,1
Sujji Khurd,22.45670466,86.43746527,5.735363522,0.180549046,1
Sura Chak,22.62967452,86.22105176,7.309975492,0.225833375,1
Tanrwa,24.1494752,83.7937331,306.6733211,0.151679422,0
Tara Chuan,22.51749084,86.44459705,7.266682329,0.166626583,1
Tekra Kalan,22.58666323,86.47294577,13.21561463,0.167135818,1
Tekra Khurd,22.47216896,86.44442611,4.881366478,0.173032992,1
Umed Chak,22.45653857,86.44127825,5.358723841,0.179623691,1
Umed Chak Arazi,22.46629694,86.43973581,5.354247856,0.160953807,1
Wali Chak,22.62963076,86.22257522,7.163097378,0.225152357,1
Amainagar,22.5236997,86.45284099,7.295046166,0.154280992,1
Amchuriya,22.52419592,86.45755268,7.088657949,0.165037553,1
Anidi,22.45611004,86.44461951,5.039237177,0.177232042,1
Asna,24.4481947,85.5346262,214.0562988,0.17502249,0
Bagalgora,22.81625994,86.09822056,29.07000227,0.194441759,0
Bagbinda,22.61822668,86.21838031,7.205470703,0.235618829,1
Baghuriya,22.61321215,86.20535164,8.443819878,0.219687683,1
Baitalpur,22.62841855,86.21994993,7.365076672,0.228214898,1
Baki,22.61267401,86.22020225,6.920225625,0.234454316,1
Baliam,22.58799642,86.475416,13.32736223,0.157768773,1
Balidi,22.58727279,86.48088105,13.18857155,0.158756241,1
Baliguma,22.82790084,86.0892541,30.58595425,0.195135076,0
Ballam,22.61890333,86.21257611,7.805122725,0.23334467,1
Bandhdi,22.82417418,86.08831961,30.40956482,0.189857974,0
Bankati,22.6303118,86.4666402,12.59439548,0.205142948,1
Banskatiya,22.62990765,86.21728865,7.679406948,0.230268409,1
Bara Dhaidka,22.82594355,86.09220252,30.21402289,0.202517798,1
Bara Jamuna,22.61560403,86.21930964,7.057921018,0.236021491,1
Bara Jurni,22.61641688,86.22240052,6.761003113,0.231159457,1
Barakhursi,22.613388,86.22152648,6.795463143,0.232084829,1
Barapahar,22.62235052,86.2146712,7.680477171,0.234860706,1
Barbil,22.7107192,85.9064146,40.83059801,0.211034784,1
Bardi,22.59277825,86.46661533,13.99122653,0.17501107,1
Basadera,22.82027346,86.09391467,29.69090223,0.194980945,0
Berahatu,23.0731236,85.5727369,89.48926628,0.299054466,1
Bhaduya,22.82128541,86.09729456,29.48452149,0.19789693,0
Bhalukkhuliya,22.6307461,86.22140207,7.321945608,0.227690364,1
Bhumru,22.59504891,86.47006792,14.17836621,0.169927645,1
Bhumrudi,22.45865611,86.44597634,4.833134043,0.176069967,1
Birbad,22.81904027,86.09937794,29.16307493,0.195546512,0
Bodhpur,22.46696921,86.42981268,6.372005936,0.140265552,1
Brindabanpur,22.5078612,86.44622924,6.387235794,0.175576588,1
Budhraysai,22.62720545,86.20813947,8.472360952,0.220326126,1
Burudi,22.52392502,86.44954602,7.506606561,0.156308498,1
Chakdaha,22.59443178,86.47059011,14.10250562,0.168622202,1
Chandrarekha,22.62158001,86.21683892,7.443418797,0.234479971,1
Chapri,22.613793,86.4094555,7.798182396,0.200111953,1
Charri,22.81813574,86.09854848,29.16927457,0.195917832,0
Chekam,22.6833608,86.581664,24.38255284,0.134729451,0
Chengjora,22.63193192,86.20432005,9.008221156,0.221955825,1
Chholagora,22.62129679,86.20778695,8.341638612,0.224820476,1
Chhota Dhaidka,22.52296005,86.45952495,6.870063476,0.174225643,1
Chhota Jamuna,22.62359429,86.20456963,8.721352263,0.221072418,1
Chhota Khursi,22.81907429,86.10107589,29.02784824,0.19227535,0
Choraigora,22.46646473,86.43136293,6.214406191,0.142227269,1
Chorinda,22.6717844,86.4275639,8.566009883,0.189495065,1
Dainmari,22.6772233,86.5317964,19.2132328,0.213638642,1
Darisai,22.46668472,86.43815173,5.515276637,0.157646342,1
Deoli,22.7405119,85.8491815,47.43025232,0.189701844,0
Dhakpathar,22.5202535,86.44423089,7.521773107,0.162258621,1
Dhamakbera,22.60250937,86.47774708,14.60343524,0.225755829,1
Dhanbani,22.63137657,86.21393823,8.059312538,0.226320113,1
Dhangakamal,22.47045315,86.44467977,4.84361314,0.174122072,1
Digha,22.6459772,86.5261745,18.47127504,0.220060095,1
Digri,22.6388804,86.3989521,5.608390167,0.208201987,1
Dubrajpur,24.2125651,86.968267,184.0043622,0.147621757,0
Dumarbahal,22.59369924,86.47735067,13.93160378,0.164010773,1
Edalbera,22.46457132,86.44105138,5.231858926,0.167606746,1
Galudi,22.62240695,86.2114199,8.006059319,0.230384213,1
Gandhaniya,22.81636079,86.09836294,29.06510806,0.194340115,0
Ghikuli,22.58499718,86.4806622,12.93944892,0.163787272,1
Ghotiduba,22.61381717,86.21818668,7.142108293,0.236209117,1
Ghutiya,22.81719914,86.09473482,29.41829587,0.19056198,0
Gohandi,22.46511475,86.44640916,4.677316919,0.173286038,1
Gopalpur,24.8234822,87.8607477,285.6563001,0.212746351,1
Gurajor,22.46122223,86.44645909,4.727424201,0.176819259,1
Haludbani,22.47275566,86.4363196,5.718182485,0.155845741,1
Hendaljuri,22.61960662,86.20730559,8.351753066,0.22485721,1
Hiraganj,22.639838,86.499331,15.76518979,0.201672065,1
Hullung,22.46379487,86.43318096,6.046311102,0.148914456,1
Jagannathpur,22.169522,85.643908,81.92186893,0.385299188,1
Jambad,24.7538562,87.766385,274.0174985,0.149656974,0
Jarisa,22.82252147,86.09891128,29.4384666,0.198511925,0
Jhaprishol,22.46307659,86.44762227,4.577593083,0.175634608,1
Jharbera,22.59847203,86.47574482,14.47506552,0.194177681,1
Jhatijharna,22.50731278,86.44421658,6.500277739,0.177776164,1
Juktidi,22.81416103,86.08440309,30.07802643,0.188226,0
Kala Pathar,22.6001771,86.46592408,13.59953873,0.184238558,1
Kalajhor,25.1632798,87.5581466,304.1352976,0.181185484,0
Kalapathar,22.673248,85.9596789,34.48469455,0.210745309,1
Kalchiti,22.6229638,86.5026998,16.38944331,0.202282999,1
Kalimati,22.2636011,85.7597923,66.14231991,0.208118946,1
Kamarigora,22.58588387,86.46800812,13.21443748,0.18323271,1
Kanimahuli,22.45697184,86.43675791,5.799599703,0.180114322,1
Kankrishol,22.46609693,86.43642791,5.69537337,0.153769876,1
Karaduba,22.81640243,86.10338965,28.65862077,0.180207281,0
Karanja,22.45918979,86.43303223,6.127515902,0.169181987,1
Kashiya,22.8256661,86.101858,29.4207542,0.214510716,1
Kashpani,22.58475017,86.47242685,13.0141006,0.171056534,1
Katshol,22.58972564,86.48229309,13.44801258,0.161533863,1
Kenduaposhi,22.46580306,86.43557737,5.784466354,0.152159705,1
Kesharpur,22.47230359,86.43220651,6.136676327,0.145375334,1
Kharikashol,22.51362935,86.44950391,6.611968168,0.178769226,1
Kharsati,22.45958694,86.43426673,5.994860396,0.172055721,1
Khutadi,22.5256681,86.44198672,8.130450203,0.162672093,1
Kitadi,22.81558093,86.08883904,29.79896089,0.183238752,0
Kodakocha,22.45624458,86.43330556,6.163955967,0.174717605,1
Kuliyana,22.45788274,86.43571359,5.883257654,0.179057037,1
Leda,22.82130077,86.10177942,29.12375965,0.192407769,0
Lepadabar,22.51355373,86.45636946,6.164296838,0.178951244,1
Luyamariya,22.82071152,86.08814543,30.19292996,0.181780215,0
Mahalidi,22.59739933,86.47896592,14.32295177,0.192218743,1
Mahatam,22.52419479,86.45599304,7.169455197,0.160479661,1
Mahishduba,22.60082596,86.46808327,13.76953559,0.190535425,1
Mahuliya,22.52462066,86.45263338,7.392146707,0.155154391,1
Makrakalapathar,22.82539815,86.09417545,30.01745131,0.203548373,1
Makuli Jangli,22.45478354,86.43143167,6.388991199,0.171881873,1
Mirgitanr,22.51364359,86.45425276,6.303090154,0.178247741,1
Murhakati,22.51600184,86.44813915,6.90262277,0.172521806,1
Narsinghpur,22.1487648,85.7147312,77.62644382,0.22621629,1
Nishchintpur,22.46898046,86.43118105,6.2287111,0.143085541,1
Paharpur,24.8340641,87.5880846,272.6800484,0.173173023,0
Pairaguri,22.58622836,86.47001011,13.21560389,0.176687871,1
Patmahuliya,22.61821513,86.20812894,8.240003138,0.227905053,1
Phuljhor,22.46814898,86.4434153,4.96969432,0.167870938,1
Phulpal,22.5252244,86.45956201,7.089010924,0.174614269,1
Pirrabad,22.60002992,86.47123781,14.10089974,0.193627873,1
Pithati,22.46450302,86.4357073,5.780653702,0.153095975,1
Pokhariya,25.0944215,87.5563473,297.1169805,0.242862175,1
Purgora,22.6698975,86.5689611,22.92349155,0.220903803,1
Purnapani,22.3560826,85.1874728,116.4616463,0.280942717,1
Putru,22.51537544,86.45942379,6.15312941,0.178822883,1
Raghunathpur,24.8616792,87.6634696,279.0013095,0.186906659,0
Raja Basa,22.51602687,86.44267739,7.28215174,0.172559275,1
Ram Chandrapur,22.45937659,86.42891779,6.54194747,0.155409745,1
Rangabandh,22.81712037,86.09025836,29.78186128,0.187404711,0
Shalbani,22.61265636,86.22247576,6.688056138,0.231106465,1
Shirishbani,22.81239362,86.09296221,29.24910625,0.184117231,0
Shyamnagi,22.58654402,86.46462085,13.35461266,0.193371647,1
Sinduriam,22.51833035,86.45654138,6.589069985,0.166146655,1
Sirsa,25.1173324,87.4855805,296.5319094,0.147250467,0
Soradabar,22.46528844,86.43239069,6.115159757,0.143763607,1
Sundar Kanali,22.62791072,86.20612018,8.693687754,0.217997774,1
Susnigariya,22.4617439,86.44025984,5.348483892,0.172577487,1
Susnijobni,22.58471786,86.4711782,13.03075913,0.174879481,1
Tamakpal,22.5800733,86.4953774,12.35006117,0.203745022,1
Terapani,22.60099085,86.46494603,13.46993595,0.185997805,1
Tetlakocha,22.51095909,86.44702347,6.568010268,0.178380261,1
Thakurbari,22.81916702,86.10024808,29.101162,0.194040941,0
Tikri,22.8268298,86.09160755,30.32265625,0.200653875,1
Ulda,22.51881815,86.4537681,6.794113728,0.15771962,1
Upar Paora,22.52135391,86.457247,6.833394451,0.164464305,1
Upardigha,22.46004965,86.43525373,5.886249311,0.172373242,1
Amlatola,22.8286927,86.09093589,30.50455719,0.197759454,0
Anandpur,22.4978876,85.1467065,117.8864272,0.205502923,1
Asanbani,25.1825539,87.6881986,311.6548122,0.188988335,0
Asuyadi,22.61988331,86.21271192,7.813576769,0.233030792,1
Atijhari,22.4679281,86.4462347,4.679866666,0.172896245,1
Bagmara,24.9037593,87.5084424,275.9468552,0.24190471,1
Balijuri,22.46123723,86.43094677,6.305787168,0.155016022,1
Baliposh,22.51491975,86.44753404,6.853089603,0.175929129,1
Baliyachuya,22.59141398,86.47488585,13.70967001,0.156806467,1
Baliyagora,22.52600922,86.45279707,7.512653179,0.156437129,1
Bamanjhari,22.46088741,86.43730774,5.662950966,0.171245566,1
Banakata,22.81269898,86.0916797,29.37566782,0.184088617,0
Bandhdih,22.7179239,86.3152417,6.74621824,0.141614344,1
Bango,22.59467253,86.48305296,13.98926943,0.18457402,1
Bara Amda,22.59121896,86.46710494,13.81223999,0.175739209,1
Bara Baghlata,22.62265148,86.20354853,8.799649497,0.219556587,1
Bara Banduya,22.61909917,86.21033703,8.035115709,0.23062739,1
Bara Bhalki,22.50852606,86.44189331,6.768821305,0.177707049,1
Bara Bhumri,22.5842791,86.4672283,13.05505499,0.189013812,1
Bara Deuli,22.58620453,86.46453041,13.31979719,0.194171914,1
Bara Hariyan,22.81241679,86.08989035,29.50676622,0.189482523,0
Bara Pichkabasa,22.58990926,86.46375302,13.73769482,0.189064102,1
Bara Ramgarh,24.5832805,87.207237,231.0898242,0.18006448,0
Bara Tilaijhor,22.46421131,86.42913225,6.457852661,0.14219814,1
Baraghutusigra,22.61651974,86.20645616,8.378726981,0.224198125,1
Baram Put,22.82692169,86.09535016,30.02784342,0.210901445,1
Barasigdi,22.81923061,86.09684846,29.38153882,0.194023742,0
Baredi,22.5179106,86.44146144,7.519441524,0.170333051,1
Bargikocha,22.52556388,86.45317786,7.450050439,0.156647801,1
Basila,23.884472,84.1613764,259.373084,0.283666216,1
Begunadih,22.81198744,86.10156818,28.51078397,0.175011465,0
Beldi,22.52407162,86.45582412,7.166685265,0.15982624,1
Bhagabera,22.59242419,86.46624199,13.95984874,0.176079635,1
Bhatin,22.45688826,86.43493874,5.984307629,0.178289968,1
Bhelaidi,22.52152571,86.44324234,7.694962961,0.1626873,1
Bhutka,22.6162396,86.21990223,7.009988204,0.235305831,1
Bingburu,22.417158,85.9382987,41.47115762,0.213102847,1
Birdha,22.59468177,86.46559506,13.84382612,0.179710415,1
Birgram,22.62024016,86.21681343,7.41080143,0.234979852,1
Bongadungri,22.51981829,86.4543552,6.850982935,0.156068126,1
Bukamdi,22.6217931,86.20486608,8.646710943,0.221975928,1
Buruhatu,22.5609051,85.7757784,52.7976242,0.212364535,1
Butgora,22.58481478,86.47153495,13.03545884,0.173152343,1
Chadradih,22.46888618,86.443438,4.967195348,0.168923198,1
Chakre,22.51384326,86.44534274,6.917858841,0.177299617,1
Chandanpur,24.7990919,87.8413558,282.3226432,0.219810571,1
Chandpur,24.7931533,87.7756601,278.2052992,0.198516445,0
Chanpi,22.61863707,86.2088577,8.17476943,0.228576056,1
Chanpidi,22.8192065,86.0985697,29.23994577,0.19633775,0
Chatro,24.4744373,86.243835,201.3942237,0.120817206,0
Chemaijuri,22.51471766,86.44309705,7.148031012,0.175087881,1
Chhatna,22.46850037,86.44293995,5.018371825,0.168282597,1
Chhota Amda,22.7443021,85.8070292,51.68091818,0.199768243,0
Chhota Baghlata,22.62127588,86.21896605,7.223212794,0.235370734,1
Chhota Banduya,22.82458477,86.08728811,30.52135072,0.187949947,0
Chhota Hariyan,22.51616921,86.44646739,7.029431973,0.170754592,1
Chhota Pichkabasa,22.81563268,86.10103473,28.79806796,0.190694567,0
Chhota Poradiha,22.62684134,86.21857683,7.438797748,0.229332608,1
Chhota Ramgarh,24.6073618,87.1630329,231.8982226,0.169084048,0
Chhota Tilaijhor,22.47027054,86.44409429,4.903015273,0.172789014,1
Dabanki,22.6239297,86.2554375,3.863183292,0.20581326,1
Damudi,22.58767358,86.48235906,13.22087609,0.163486192,1
Dariyasai,22.62765319,86.20676159,8.622303846,0.218441788,1
Darusai,22.5771236,86.1268043,16.75948001,0.205669641,1
Datbera,22.52404584,86.4573504,7.084591079,0.164323207,1
Dhadhkidi,22.47103798,86.44391155,4.925722076,0.172805982,1
Dhanguriya,22.61362862,86.21915722,7.040412972,0.235520493,1
Dharuyalupung,22.47143742,86.44728741,4.58165941,0.174824812,1
Dhatkidi,22.46365608,86.43515036,5.845854145,0.152278517,1
Dhengam,22.62488816,86.21340672,7.880222029,0.231337539,1
Dhirol,22.50902056,86.4438861,6.651618965,0.175738948,1
Dhobni,25.1147897,87.6200813,301.897798,0.180786436,0
Dholadi,22.59842548,86.46628754,13.71808314,0.181058775,1
Digarmara,22.81429326,86.08896649,29.70488199,0.189499932,0
Digarsai,22.51007661,86.44622526,6.556955909,0.17560088,1
Dokarsai,22.58864777,86.47619336,13.38915937,0.154523194,1
Domjuri,22.50924084,86.45988921,5.565032487,0.190963177,1
Dorkasai,22.6010965,86.4651921,13.48776103,0.186602691,1
Doyarsini,22.81766561,86.09770872,29.20606885,0.195505475,0
Dudhkundi,22.58431825,86.48152736,12.85700691,0.166270155,1
Dukurdiha,22.51504055,86.45114914,6.622633882,0.173335054,1
Dumurdiha,22.63020085,86.21212408,8.188166121,0.224283256,1
Durku,22.62975785,86.20463232,8.900917497,0.217278042,1
Galusingi,22.59951251,86.47250466,14.24318397,0.191845963,1
Gamarkocha,22.51269896,86.45460795,6.198071201,0.181912025,1
Ganak Pada,22.8183123,86.09115957,29.78605478,0.189919724,0
Gangadi,22.61348847,86.21480432,7.482100843,0.239025435,1
Gargaon,22.5953382,86.3143956,3.013223499,0.19309662,1
Ghatiduba,22.59734852,86.47528278,14.35697387,0.184350653,1
Gitilata,22.7288325,85.7408948,57.77548251,0.1949764,0
Gitildi,22.59379123,86.46368876,13.71812835,0.188580272,1
Goalkata,22.60139595,86.47564767,14.45309724,0.211001146,1
Gobradi,22.51057096,86.45068046,6.278446971,0.18378139,1
Gomeyasai,22.59857673,86.48057185,14.43875611,0.202788011,1
Gorinda,22.5906425,86.48159544,13.55459781,0.160213837,1
Gurbhanga,22.63127735,86.22111193,7.372439643,0.229303193,1
Hakai,22.82744318,86.09893796,29.77743161,0.216209939,1
Haridih,22.8272381,86.10318635,29.42604819,0.23026364,1
Harina,23.8094545,86.2074852,128.128133,0.210500051,1
Hartopa,22.7030213,86.2737302,7.188514533,0.161093637,1
Harua Dauli,22.50668237,86.44946476,6.055896872,0.177541817,1
Hatibinda,22.62867663,86.21466873,7.885034149,0.228584802,1
Hatnabera,22.6287076,85.9749913,32.18474127,0.227804481,1
Hensra,22.45481682,86.44347244,5.193159056,0.179492639,1
Hesal Amda,22.59233359,86.46826984,13.91233802,0.173497128,1
Hesalbil,22.6402737,86.2361955,6.52208344,0.202547426,1
Hitbasa,22.45769441,86.43147813,6.314796372,0.167728113,1
Indasai,22.47176812,86.4421238,5.114344464,0.168854201,1
Jahatu,22.82475565,86.08535423,30.69096946,0.181463801,0
Jambani,22.5180921,86.45004714,6.957581209,0.163429371,1
Jamda,22.8538779,85.9297536,45.56303728,0.22158988,1
Janamdi,22.8133431,86.0918207,29.40568504,0.183987091,0
Jhagarsai,22.59417035,86.46954444,14.09090086,0.170440543,1
Jhaliyabera,22.81144198,86.10014208,28.59208561,0.179080153,0
Jhapan,22.62420202,86.20387248,8.807006193,0.218648984,1
Jhariya,24.0416558,85.6259328,169.0803081,0.136092112,0
Jilinggora,22.61410124,86.22281336,6.675868672,0.231466357,1
Jojodih,22.9620254,85.5591862,84.54939312,0.278193494,1
Jojosai,22.59774509,86.47093581,14.1806678,0.177413513,1
Juri,22.6264497,86.1811351,11.14019477,0.210727406,1
Juri Pahari,22.8205041,86.10115485,29.11925728,0.193198776,0
Kairasai,22.52621418,86.44416154,8.039443041,0.160896382,1
Kalikapur,24.6370947,87.8653425,268.8502846,0.161008488,0
Kamalpur,24.8598101,87.8598506,288.9899398,0.157699371,0
Kandar,25.1409578,87.6426898,305.4996564,0.15253049,0
Kanikola,22.62486802,86.2101183,8.204781776,0.2259625,1
Karketa,22.616065,86.20484618,8.535001948,0.219699966,1
Kashidi,22.51178348,86.4583099,5.888411855,0.186385147,1
Kashiyabera,22.59955516,86.47761599,14.57384874,0.205836748,1
Katashol,22.51341123,86.45374541,6.314904204,0.179659972,1
Kendmuri,22.47032562,86.44449919,4.861608282,0.173525167,1
Kestrapal,22.59030494,86.4656105,13.74194774,0.182184944,1
Khamardi,22.59197634,86.47932587,13.72156317,0.15844316,1
Khanr Deuli,22.62532183,86.20395185,8.82984139,0.216532055,1
Kharband,22.51352408,86.4499666,6.571971723,0.179430247,1
Khariyasai,22.46296836,86.44090858,5.264598042,0.170179687,1
Khayerpal,22.5957072,86.1785602,11.19737012,0.22398905,1
Khursi,22.7092167,86.2890393,6.738872468,0.173488045,1
Kogda,22.62207478,86.22327093,6.81949481,0.228583796,1
Kope,22.58487717,86.47648029,12.97108495,0.165362856,1
Kowali,22.5076013,86.1847186,15.06666708,0.188339021,1
Kudapal,22.60245794,86.47112071,13.97948206,0.205533895,1
Kuldiha,22.443369,85.8152068,51.73225045,0.199393979,0
Kundru Kocha,22.59799023,86.46603725,13.71647786,0.18006907,1
Kutsuri,22.81524419,86.08751292,29.88751658,0.183840679,0
Lagurasai,22.52172681,86.45314545,7.095775875,0.152548379,1
Lailam,22.61818227,86.22002901,7.038565609,0.234831669,1
Lakhansai,22.51580827,86.45039147,6.737772035,0.171868727,1
Lerakocha,22.4669062,86.43338065,6.005162111,0.145583225,1
Lowadih,23.3604489,85.3608406,125.7032345,0.100653763,0
Luyadi,22.81071142,86.08977572,29.40710409,0.192122035,0
Madansai,25.0555315,87.7389005,301.4960286,0.116839918,0
Maghuwasai,22.52361496,86.4579587,7.012079577,0.166076841,1
Majgaon,22.59819164,86.4690265,13.98239641,0.179239509,1
Mako,25.0348519,87.5126105,289.2798248,0.20394409,1
Makundasai,22.62110051,86.20449435,8.66795921,0.220314994,1
Manglasai,22.82056969,86.09427674,29.68128512,0.19550912,0
Mangru,22.4899012,86.2453411,13.44681464,0.189321292,1
Manhara,22.51723421,86.45527825,6.561336582,0.164060162,1
Manpur,22.365829,85.2000122,114.9510427,0.275109951,1
Marangmali,22.82776828,86.09050934,30.47551242,0.197715063,0
Matiyal,22.82957206,86.09836666,29.97212183,0.222662879,1
Matkamdi,22.59095377,86.47771591,13.62530805,0.155554889,1
Matku,22.6813841,86.227195,9.540618038,0.175023655,1
Mejagora,22.51672956,86.44591918,7.113278657,0.168236859,1
Mohanadi,22.61362185,86.20470337,8.515043426,0.219382952,1
Mohuldiha,22.1452868,85.8725631,66.43210928,0.204430286,1
Mudasai,22.62846039,86.21420881,7.921762963,0.227220879,1
Mukundpur,22.46367723,86.44638874,4.695245917,0.174456021,1
Murgaghutu,22.47172422,86.44285832,5.038594273,0.1706164,1
Nachsai,22.46777646,86.43498431,5.837877565,0.150217185,1
Naga,22.5867921,86.1322116,16.04335268,0.219371694,1
Namokhayerpal,22.82739332,86.09155244,30.36569315,0.200420988,1
Narayanpur,24.0435834,86.5806128,155.7406112,0.089135171,0
Narda,22.4886856,86.2301893,14.1439946,0.194308632,1
Netosai,22.51142121,86.45471406,6.080383483,0.185286416,1
Nuagaon,22.5238357,86.45143254,7.387942602,0.153252897,1
Nuagram,22.51271916,86.4496552,6.525968485,0.180465872,1
Olansai,22.52242126,86.45033046,7.324133911,0.155163717,1
Orkabera,22.6088124,86.3261352,3.51467556,0.196794846,1
Palidi,22.51025679,86.44042492,7.008552471,0.178435199,1
Pandarshole,22.81542267,86.10304055,28.62057039,0.178856032,0
Papragaru,22.4541642,86.44772437,4.800182529,0.186501567,1
Pariyasai,22.62811847,86.20736842,8.577856946,0.219030035,1
Parsagora,22.59808399,86.47671875,14.42132215,0.193515725,1
Patapani,22.52018468,86.44901626,7.205687426,0.159010385,1
Pathar Chakri,22.47135061,86.44609137,4.703841109,0.175374257,1
Patharbhanga,22.47261673,86.43283292,6.074787021,0.146961631,1
Patisai,22.4603391,86.4299711,6.418812856,0.155810781,1
Pauri,22.62053552,86.21804453,7.295248311,0.235268118,1
Pichhli,22.82341005,86.08840138,30.35164516,0.188895276,0
Pitidiri,22.51296546,86.4478708,6.669188533,0.177599176,1
Pogrosai,22.46506808,86.43440389,5.909915136,0.148548364,1
Pora,22.61468436,86.20494867,8.503985671,0.219633817,1
Pora Bhalki,22.82164334,86.09117862,30.00627193,0.194686593,0
Porabhumri,22.63111972,86.21886325,7.578726699,0.229674914,1
Poradiha,22.51143584,86.44368144,6.849611166,0.178035702,1
Porahatu,22.61364234,86.20920717,8.055339711,0.228314422,1
Porsa,22.61654347,86.20530701,8.495912222,0.220678674,1
Potka,22.5910615,86.2309635,5.965037501,0.210747687,1
Pukhuriya,22.63144227,86.21751227,7.720756042,0.229885504,1
Putlupung,22.5167445,86.45141416,6.753412706,0.167253397,1
Radur,22.82373432,86.09307771,29.99272415,0.199068545,0
Raharjuri,22.45567396,86.43960217,5.549891391,0.180599441,1
Rai Pur,22.602941,86.46474963,13.36010433,0.194075538,1
Rajabasa,22.0991399,85.6716871,84.58655723,0.193724348,0
Rajdoha,22.62714912,86.21706766,7.596621438,0.229635519,1
Rangamatiya,22.59682356,86.47004508,14.14305712,0.174118841,1
Ranikudar,22.7948771,86.1733566,21.67154015,0.108875076,0
Rasunchapa,22.5597314,86.1074227,19.13517955,0.181791623,1
Rimra,22.82443364,86.0983063,29.61878591,0.205129383,1
Rohinibera,22.6439561,86.3206356,1.530476632,0.217012997,1
Roladi,22.3532709,85.929485,46.1598843,0.206380247,1
Roldi,22.5228152,86.441717,7.905459769,0.162302132,1
Roteda,22.59619464,86.47964312,14.18384932,0.185860373,1
Rugrisai,22.81918568,86.08489543,30.36115143,0.173070274,0
Sadedi,22.61301217,86.21731737,7.21918066,0.23656634,1
Saharjuri,22.47255087,86.44256619,5.075643983,0.169504528,1
Sanbasa,22.63158968,86.20674948,8.76012886,0.221747559,1
Sangram,22.46166557,86.43199642,6.192607825,0.155876834,1
Saonadi,22.59578832,86.47414829,14.1997833,0.172319414,1
Saragdi,22.61805905,86.2110773,7.938711718,0.232364847,1
Sarasbera,22.82319882,86.08896684,30.29127271,0.190702675,0
Sarjamdi,22.63119912,86.20473649,8.941194057,0.220578705,1
Sarmanda,22.6127432,86.189804,10.02997925,0.228107797,1
Sarse,22.5627385,86.0893821,20.85377634,0.200202927,1
Serengdih,22.60046244,86.47079874,14.03987367,0.195429182,1
Shankarda,22.46359099,86.4388433,5.46828585,0.165758127,1
Shiling,22.45920818,86.42961709,6.473840017,0.157906664,1
Sidhirsai,22.5026942,86.1542686,17.7407274,0.201419202,1
Sikarsai,22.563967,86.1430263,15.48694071,0.20527612,1
Sikra,22.45678074,86.43002694,6.481157086,0.163991921,1
Sindurgauri,22.5931319,86.47649489,13.87877964,0.160596479,1
Sindurpur,24.8018569,87.6153093,270.8470621,0.190932677,0
Sohada,22.5684848,86.44382,12.10829565,0.213331756,1
Sona Posh,22.51946376,86.4482456,7.191609173,0.160240571,1
Sonagora,22.46110848,86.43260529,6.138474918,0.160321873,1
Supal Bhalki,22.50737363,86.45086335,6.007906971,0.181379371,1
Swanadhi,22.63086987,86.2059965,8.80684559,0.22090271,1
Swargchhira,22.82198628,86.09402307,29.79751169,0.194476478,0
Tangarsai,22.58701601,86.47658035,13.20501732,0.158962262,1
Tangrain,22.82316835,86.10347261,29.11763925,0.201003051,1
Telaidi,22.58869827,86.4680038,13.52095081,0.178463383,1
Tetla,23.2704345,85.7823175,87.68480116,0.190720137,0
Tiksiring,22.59914208,86.47170761,14.18608747,0.187607023,1
Tilaitanr,22.61557147,86.21503673,7.490907248,0.23875356,1
Tilamura,22.59206883,86.47384979,13.79539252,0.158285134,1
Tilingkocha,22.51077203,86.4527588,6.15358134,0.187868222,1
Tirildi,22.60103229,86.46565958,13.53424211,0.18696431,1
Tiring,22.63192371,86.20582479,8.862087362,0.222298558,1
Topgariya,22.51994699,86.45715811,6.705544322,0.164694976,1
Tulgram,22.51162615,86.45896848,5.834892567,0.187221633,1
Turi,22.46615134,86.43502461,5.839350676,0.150218456,1
Turkudi,22.81122903,86.09937162,28.64165287,0.181351045,0
Udal,22.4161067,86.7917776,31.4318199,0.183293682,0
Upar Deuli,22.61773234,86.20960754,8.080959392,0.230402403,1
Upardiha,22.59243295,86.46909703,13.90869645,0.171019805,1
Adityapratappur,22.51225513,86.44036465,7.160688978,0.17829274,1
Amdih,22.46006834,86.43251188,6.164621256,0.164700522,1
Awlatanr,22.51640089,86.45866935,6.290620483,0.176564755,1
Baijnathpur,24.9125317,87.7465851,288.0399736,0.133955243,0
Baliposi,22.60184873,86.48332537,14.78076809,0.229867163,1
Balrampur,22.52353599,86.44475133,7.768313364,0.161153543,1
Bamdih,22.46268989,86.43963588,5.398343249,0.168982714,1
Banddih,22.51990804,86.45260058,6.961971124,0.156638144,1
Bandih,22.59146138,86.47832878,13.67472147,0.156836908,1
Bankipur,22.81050872,86.10101526,28.45853475,0.177444237,0
Bara Hariharpur,22.58657954,86.48137457,13.10786664,0.160665947,1
Bara Jamjora,22.82103986,86.10053649,29.20584312,0.194403371,0
Bara Kankra,22.82001719,86.09926963,29.23826503,0.19605252,0
Baramari,22.45396601,86.43237376,6.317522448,0.175343505,1
Bardih,22.7682108,85.8271588,50.59085106,0.20805078,1
Barhmatand,22.82584847,86.0902658,30.36430575,0.197333782,0
Barikocha,22.45470654,86.4447374,5.072551357,0.17933054,1
Barkatanr,22.52623055,86.45444394,7.444741662,0.160048876,1
Barubad,22.51624812,86.45361136,6.572832196,0.164585859,1
Bastandih,22.59464198,86.48188576,13.99404379,0.179756322,1
Basulikocha,22.62172649,86.21451461,7.679121637,0.235200518,1
Basurda,22.45956935,86.4475743,4.650337405,0.178041425,1
Begnadih,22.7488084,85.8706,45.6586032,0.219405314,1
Bejai,22.82432134,86.09844144,29.60018601,0.204814134,1
Beltanr,22.58420976,86.48148819,12.84536168,0.1664932,1
Bhaduagora,22.8231814,86.0203743,35.95074551,0.231332957,1
Bhalubassa,22.62514361,86.21768918,7.466894681,0.230417413,1
Bholadih,22.8029671,86.0283136,34.00637976,0.189744837,0
Bikanipur,22.60178301,86.48170389,14.78416673,0.226494962,1
Bindapur,22.59939804,86.4823048,14.51646379,0.212580591,1
Birajpur,24.7775416,87.6596333,270.69611,0.195977022,0
Birampur,24.9112837,87.8387816,292.6898444,0.144926149,0
Birbans,22.793984,86.0141001,34.71136178,0.18036882,0
Birdhajpur,22.461377,86.44100577,5.278510748,0.17401103,1
Burudih,22.7461499,85.8645325,46.14331876,0.196839689,0
Chamaru,22.52590963,86.44973885,7.675825642,0.158741921,1
Champanagar,22.46504149,86.4290986,6.455023861,0.141021789,1
Chandarpur,22.81385516,86.08695481,29.84464729,0.189238984,0
Chora,22.8143603,86.0271978,34.81322825,0.226782952,1
Chota Hariharpur,22.63015796,86.20873416,8.515089053,0.22015705,1
Chota Jamjora,22.4638267,86.43459456,5.901082224,0.150971321,1
Chota Kankra,22.5241821,86.45461414,7.24200052,0.157396952,1
Chotabaramari,22.62997925,86.21539987,7.863725879,0.230007341,1
Dadiamara,22.51446827,86.45824186,6.136217441,0.179387395,1
Daraikocha,22.50989772,86.44820965,6.398645555,0.179012917,1
Daraimach,22.51610652,86.45235802,6.638111261,0.167460982,1
Dhadkidih,22.46564829,86.44404009,4.916062761,0.172154117,1
Dhahkidih,22.82035484,86.08663508,30.2938396,0.176014152,0
Dhatkidih,22.8008114,86.176089,21.94281477,0.124665955,0
Dighi,25.1021091,87.6295596,301.0503109,0.174422095,0
Donda,22.62203254,86.22305508,6.839528842,0.229336117,1
Dudra,22.82029684,86.09383606,29.69888933,0.194836179,0
Dugdha,23.7497783,86.1695641,121.9897742,0.129530164,0
Dugni,22.757662,85.9773302,36.03405055,0.213731088,1
Dumra,24.9613535,87.6165213,286.5133538,0.187813899,0
Gangia,22.61676007,86.21665559,7.348706475,0.237431967,1
Gaurang Dih,22.6180161,86.20417073,8.637094783,0.217820824,1
Ghagi,22.45713626,86.43070039,6.40535972,0.165614012,1
Ghutubera,22.59455723,86.47231729,14.08999181,0.166659926,1
Gidibera,22.8828869,86.0522925,37.4067794,0.216951093,1
Gohira,22.82659157,86.09485519,30.04477956,0.208615027,1
Gonadih,22.59756024,86.47187264,14.27635418,0.176454215,1
Gopi Dih,22.51569614,86.44004996,7.44629385,0.173884763,1
Gopinathpur,22.6630268,86.0749841,22.72210874,0.226047095,1
Guna Dih,22.59054563,86.46689617,13.74291802,0.178992885,1
Gura,22.3947711,85.8040702,54.87462067,0.22312497,1
Haladbani,22.82252861,86.09197617,30.00069112,0.197579748,0
Hanribhanga,22.46788233,86.4450695,4.799855999,0.17106329,1
Hardala,22.61538298,86.21708765,7.279387087,0.237716229,1
Harisundarpur,22.61860347,86.21476256,7.578210633,0.234464866,1
Hatitand,22.52453525,86.45569939,7.21731581,0.160053012,1
Hidibili,22.45449931,86.4339093,6.149627297,0.177987253,1
Hundurbera,22.81594867,86.0926685,29.50571315,0.188260141,0
Itagarh,22.62845565,86.21439908,7.90311363,0.22775847,1
Jaganathpur,22.82032845,86.10306638,28.95333471,0.191405524,0
Jagarnathpur,24.8731265,87.7769344,285.8326139,0.206136364,1
Jaikam,22.61689102,86.20535314,8.497092104,0.220671032,1
Jambera,22.46384543,86.44302465,5.037317468,0.172581573,1
Jambohal,22.60161189,86.46598075,13.53682506,0.189692198,1
Jaspur,23.4774841,85.5674592,119.3721897,0.165069172,0
Jhapragura,22.62140633,86.2224007,6.885617122,0.231999464,1
Jhar Gaobindpur,22.46632374,86.42910629,6.447092898,0.139390067,1
Jhurkuli,22.8078879,86.0813576,29.94270217,0.207334372,1
Jilingbera,22.81305771,86.09456243,29.15946277,0.183629742,0
Jiwanpur,22.51239252,86.45737845,5.999230778,0.184198887,1
Jordina,22.62490449,86.2189024,7.339962806,0.231168509,1
Kanki,22.6828461,86.047325,26.10077371,0.206927305,1
Karangura,22.6124907,86.20749251,8.216591477,0.222323318,1
Kendudih,22.59530766,86.47774116,14.10458092,0.173648406,1
Khakudih,22.81108763,86.0980001,28.74581453,0.184145926,0
Khuchidih,22.82949689,86.08676897,30.89578512,0.194599508,0
Khudibera,22.46365301,86.44098881,5.24793079,0.169207677,1
Khudidih,22.51815949,86.44826105,7.078069428,0.163718762,1
Kolabira,22.81588795,86.0928658,29.48542555,0.187895364,0
Koludih,22.46953021,86.44188317,5.128138362,0.1692189,1
Kul Diha,22.59525152,86.47065749,14.19114646,0.169519527,1
Kumharea,22.45692149,86.4341432,6.063480718,0.17654571,1
Madhupur,24.2878679,86.6105095,182.9277691,0.129376686,0
Mahtabera,22.51597238,86.44946098,6.812565889,0.171351545,1
Mahuldih,22.6812323,85.9965884,31.02213721,0.220939974,1
Manipur,22.52070389,86.45970357,6.643122953,0.176047291,1
Manoharpur,22.2609004,85.21995,116.2689792,0.178699532,0
Maslewa,22.47010667,86.43136791,6.211553577,0.141798482,1
Mohanpur,24.5073581,86.8144128,210.8220763,0.148455114,0
Muria,22.62995334,86.20971439,8.41245836,0.221719656,1
Murkum,22.82169537,86.10192835,29.13901591,0.19338672,0
Musari Kudar,22.59988502,86.48336984,14.56341481,0.21798195,1
Narainpur,24.8611024,87.8382907,287.9441388,0.157189258,0
Nata Dih,22.8159305,86.08733801,29.94651124,0.180960316,0
Nawa Dih,22.45867301,86.44802535,4.627593471,0.1798871,1
Nayadih,22.7585804,85.8275386,50.18455951,0.204047506,1
Nayagarh,22.82762043,86.09074725,30.44619453,0.198499359,0
Nengtasai,22.61571851,86.2230189,6.684409051,0.229945279,1
Nil Mohanpur,22.82440618,86.09052327,30.24566559,0.194460075,0
Nimaidih,22.62460368,86.20600266,8.605742864,0.221480767,1
Nisakpur,22.59305153,86.46773989,14.00014117,0.172592301,1
Nischitpur,22.62729403,86.21904718,7.409625821,0.229400725,1
Nua Dih,22.46096651,86.4306287,6.342182396,0.155468248,1
Padampur,22.807406,85.93117,42.88320333,0.212047534,1
Pagrodihi,22.82885556,86.0956002,30.14202949,0.213013091,1
Pakhurgora,22.81588014,86.08907257,29.79902132,0.183368186,0
Palubera,22.51734194,86.45845862,6.390132662,0.174663295,1
Parbatipur,22.61421722,86.21377928,7.597067848,0.2382621,1
Patharghora,22.6224638,86.20969903,8.179375289,0.227228638,1
Penderbera,22.59505614,86.47066338,14.16967178,0.16912023,1
Pora Dih,22.82717761,86.08655318,30.75581729,0.191044438,0
Pratappur,24.3065742,84.61574,252.5685362,0.1064291,0
Raghudih,22.60168334,86.4788167,14.74023057,0.220491599,1
Raimara,22.61925893,86.22268296,6.798546695,0.231172878,1
Raimasa,22.46058363,86.44276826,5.113810407,0.17601891,1
Raipur,22.82914828,86.0942424,30.27084265,0.209714715,1
Rajgaon,25.262509,87.5043726,312.0886344,0.183522866,0
Ramjibonpur,22.59245618,86.47056668,13.88676084,0.168310054,1
Ramnagar,24.855205,87.8495074,287.9979834,0.154842207,0
Rangamatia,25.2369961,87.6354062,314.7975517,0.148113964,0
Rangatanr,22.59244213,86.47650756,13.80273772,0.158570053,1
Rapcha,22.59493954,86.4654944,13.82131138,0.18017152,1
Ratanpur,24.8551715,87.7686198,283.6949654,0.158196158,0
Rearda,22.59023186,86.47553021,13.57153653,0.153750484,1
Rengodih,22.58562406,86.47319138,13.09808686,0.169094555,1
Sahebganj,25.0320437,87.691764,296.96297,0.219444443,1
Salampathar,22.45722199,86.44303739,5.164582499,0.177881478,1
Saldih,22.81687698,86.08695132,30.04010471,0.176377326,0
Samram,22.50734548,86.45597997,5.649794596,0.192481401,1
Sankerpur,22.8278458,86.08772399,30.70605623,0.192520769,0
Santaldih,22.61401842,86.20781854,8.202074645,0.22523481,1
Sarupdih,22.45468627,86.44515923,5.031884238,0.179286095,1
Shibpur,22.6192782,86.21042101,8.030520313,0.230713193,1
Simalbera,22.50680856,86.45667382,5.558214892,0.192761878,1
Sindukopa,22.61763654,86.20690428,8.35298838,0.225413581,1
Singhpur,24.017724,86.1356234,151.8646808,0.109236178,0
Sirdharpur,22.81160103,86.08640628,29.7468165,0.191891274,0
Sitarampur,24.9223543,87.8131494,292.3912617,0.140842729,0
Sobhapur,25.0808084,87.7652288,305.2232777,0.122267854,0
Sudhapur,22.62307252,86.20655758,8.509123866,0.224714921,1
Tetoposi,22.50749344,86.45334905,5.841630955,0.186429305,1
Thasakpur,22.6860433,85.6013699,71.0438177,0.230829788,1
Tilepada,22.59683248,86.48083814,14.24404255,0.192113336,1
Tirildih,22.9006966,85.6259571,75.37852441,0.192871186,0
Tirintipa,22.50897813,86.45441054,5.892155161,0.191358294,1
Tirla,22.8727649,85.3789857,97.86986488,0.191334459,0
Tiunia,22.60002808,86.46962769,13.95079793,0.189892403,1
Udaipur,23.9707567,85.2194533,184.1379971,0.145055598,0
Ugma,22.46201773,86.43030718,6.360567197,0.150102742,1
Ujainpur,22.6307106,86.21935512,7.51473779,0.229092586,1
Ujalpur,22.7305113,86.0803699,25.37990334,0.250200924,1
Ukam,22.7073874,86.1506632,17.78161331,0.261650211,1
Uparbera,22.4657049,86.43603759,5.737767989,0.153403578,1
Bakra,22.4819675,86.486907,1.560296097,0.182017396,1
Bangora,22.52627873,86.45800564,7.267506689,0.169838446,1
Barajharnail,22.51735406,86.45698354,6.473772256,0.170502251,1
Barhaniyan,22.6216741,86.22105419,7.026970761,0.233185325,1
Benashol,22.63153958,86.21739219,7.736265588,0.230032471,1
Bhuiyaboro,22.61575976,86.21817682,7.175633152,0.236605112,1
Chakuliya,22.45529598,86.43199074,6.31965833,0.17348333,1
Dhohni,22.59668557,86.46707015,13.87627703,0.175909886,1
Gohla,22.46502097,86.43416637,5.934655081,0.147956001,1
Jamshol,22.61367815,86.20684108,8.297394465,0.222490015,1
Kadamdi,22.81893484,86.095594,29.46392763,0.193939938,0
Kakdaha,22.81707219,86.09518711,29.3727307,0.190722334,0
Karashol,22.45420862,86.43678767,5.872223218,0.184000075,1
Katsakra,22.45376422,86.43375783,6.185842114,0.178871268,1
Kendadi,22.62263341,86.20409645,8.744286982,0.220668362,1
Koilisuta,22.82351502,86.09994934,29.42350319,0.200068271,1
Kulamara,22.62110839,86.21876186,7.238955584,0.235553397,1
Kumirmuri,22.82200269,86.08578213,30.47290225,0.176101995,0
Latiga,22.59603735,86.47297838,14.24291094,0.172636839,1
Laukeshra,22.45922333,86.4466374,4.752783779,0.176413288,1
Merhiya,22.815412,86.08800959,29.85700342,0.183279821,0
Netra,22.60293597,86.46573205,13.45218688,0.194283756,1
Niranjan Kocha,22.5885188,86.46929644,13.47802662,0.17461855,1
Paruliya,22.59160429,86.47288965,13.75795502,0.159783437,1
Patharghara,22.5393023,86.4453745,9.166207681,0.150936,1
Patkita,22.61907739,86.20506036,8.567496523,0.220991432,1
Patnipal,22.61426891,86.22155893,6.806163687,0.231840694,1
Raypahari,22.82831779,86.09080226,30.48956153,0.198070338,0
Royam,22.46616956,86.4393445,5.39516434,0.160243433,1
Samaydi,22.45711998,86.42916059,6.561122525,0.160923159,1
Shsoaspur,22.58330088,86.47764934,12.78366707,0.169135454,1
Sonagara,22.52372382,86.44895101,7.524065458,0.157591954,1
Surda,22.5507423,86.4396905,10.55350515,0.155489602,1
Terenga,22.51991042,86.45274146,6.953818425,0.156434619,1
Tilabani,24.8384358,87.6063645,273.9765472,0.169442938,0
Upar Banda,22.60079883,86.47107797,14.05051472,0.197781362,1
Gaya,24.6793889,85.0115833,263.4571466,0.097831151,0
Belaganj,24.9768192,84.9994754,292.7530761,0.160895367,0
Jumuanwan,24.8128,85.2981,263.0457737,0.142678545,0
Manpur,24.8117905,85.0660077,273.4278989,0.155042128,0
Bodh Gaya,24.677623,84.9727292,265.3618355,0.093202271,0
Tankuppa,24.6836087,85.1676614,256.00005,0.171113852,0
Fatehpur,25.8348023,80.9154547,654.8359233,0.15940218,0
Konch,24.9415836,84.7533008,302.0197157,0.10907493,0
Tekari,21.9646276,80.1514337,642.3359146,0.142707996,0
Guraru,24.7761366,84.7743373,285.5375787,0.172578444,0
Paraiya,24.7807344,84.8618727,281.0529849,0.162622494,0
Khizarsarai,24.9679737,85.1152127,286.5287635,0.163295082,0
Atri,24.8986796,85.1636386,277.4598126,0.171112441,0
Bathani,24.9392583,87.6879662,288.3326555,0.197236391,0
Mohra,24.0924143,79.7664271,690.8646723,0.097654672,0
Gurua,24.6485384,84.7442869,275.7732516,0.142161363,0
Amas,24.6050403,84.644168,278.1721951,0.097887385,0
Banke Bazar,24.5272809,84.6412725,271.7007021,0.101023144,0
Imamganj,24.4064834,84.6292121,262.4126732,0.070845465,0
Dumariya,24.263574,76.6085887,1009.601253,0.153070384,0
Sherghati,24.593939,84.8478903,264.6882061,0.091591181,0
Dobhi,24.5028088,84.8950534,253.6820468,0.099152541,0
Mohanpur,23.9429191,91.3346993,528.723337,0.202426204,0
Barachatti,24.4749628,85.0389335,242.810096,0.136919949,0
Aurangabad,19.877263,75.3390241,1181.768307,0.071314874,0
Barun,24.8493303,84.2368973,325.5375024,0.098213068,0
Madanpur,23.0054108,88.4898057,222.6249923,0.117748394,0
Nabinagar,24.642785,84.0968212,318.9133514,0.065391215,0
Obra,24.9377166,84.4326295,320.4216043,0.126005804,0
Haspura,25.0341666,84.5447113,322.3164832,0.050702737,0
Rafiganj,24.8366485,84.5925555,301.7010581,0.077640647,0
Deo,24.6244894,84.4254199,294.2186475,0.137912946,0
Kutumba,24.6266741,84.2840357,304.1843923,0.155646845,0
Daudnagar,25.0439843,84.4322897,329.842538,0.120942631,0
Goh,24.9875478,84.6585649,311.5439909,0.111693007,0
Raghunathpur,20.3519157,86.1499006,256.6730423,0.256132261,0
Jamui,24.7562513,86.3011128,233.9715905,0.145972152,0
Khaira,30.8194156,76.0990086,1362.94548,0.068553656,0
Sikandra,26.3757328,79.639405,795.0958577,0.19247676,0
Aliganj,27.4856878,79.0839208,907.7277371,0.159332556,0
Barhat,25.0284072,86.2818448,264.2726599,0.130631189,0
Lakshmipur,24.9645214,86.4187389,257.1649008,0.126904568,0
Gidhaur,24.8666194,86.3023671,246.2384895,0.109417818,0
Jhajha,24.7728576,86.3862997,235.7885017,0.166892634,0
Sono,24.699761,86.2794109,227.7522448,0.154632272,0
Chakai,24.5397939,86.4125769,209.9386434,0.129535476,0
Nawada,24.8173249,85.5179085,255.2213021,0.101072537,0
Hisua,24.845736,85.3953945,262.5605072,0.144916906,0
Kashi Chak,25.0600349,85.7319247,275.0079761,0.131408082,0
Kawakol,24.8353298,85.8887962,247.2345901,0.062172395,0
Nardiganj,24.9435699,85.430368,271.4322866,0.109093336,0
Pakribarawan,24.9519083,85.7532538,262.8145501,0.113009833,0
Warisaliganj,24.9921445,85.615719,270.6956651,0.118596697,0
Akbarpur,26.4200687,82.5382541,569.3711351,0.081246852,0
Gobindpur,23.8736925,86.4673961,136.2944525,0.206422941,0
Meskaur,24.7715679,85.3336313,257.3958018,0.144502604,0
Narhat,24.7898515,85.4448044,254.9437665,0.103969964,0
Rajauli,24.6342632,85.5609498,234.6017275,0.139678135,0
Roh,24.8655876,85.6823922,255.3194497,0.05052605,0
Sirdala,24.6572405,85.3830564,243.7516959,0.16863523,0
Amarpur,23.5155013,91.6548554,550.8717362,0.094988215,0
Banka,24.8328273,86.8161114,246.9986063,0.128387183,0
Barahat,24.8869232,87.0296449,257.8497633,0.124166308,0
Bausi,24.7273816,87.0033197,240.0610012,0.163312267,0
Belhar,24.9060159,86.6073904,251.9174022,0.106497876,0
Chanan,24.7337491,86.6149818,232.9629021,0.117880893,0
Dhuraiya,24.9756911,87.1040657,269.4193608,0.093656805,0
Katoria,24.7177824,86.7932156,234.0006617,0.126580939,0
Phulidumar,24.9427364,86.7763769,258.2936569,0.145767709,0
Rajaun,25.0291504,87.0030494,272.4405327,0.149266496,0
Shambhuganj,25.0468962,86.7321346,269.0324885,0.101212821,0
Akorhi,24.9764107,84.2056775,338.2416,0.187919868,0
Bikramganj,25.2183925,84.2324476,357.4444605,0.114780155,0
Chenari,24.8897795,83.8183722,358.211824,0.123577163,0
Dawath,25.3239599,84.234084,366.7313566,0.143021159,0
Dehri,24.9258862,84.1728723,336.1887141,0.175255971,0
Dinara,25.2539534,84.0922231,369.2738472,0.12628093,0
Karakat,25.1429246,84.303642,346.426464,0.120752843,0
Kargahar,25.1037517,83.9136867,368.3885891,0.210526114,0
Kochas,25.2212679,83.9205216,377.6281876,0.128769797,0
Nasriganj,25.0703835,84.2891171,340.9563638,0.130227044,0
Nauhatta,25.9967502,86.4554454,372.001591,0.019911721,0
Nokha,27.5552713,73.4755961,1405.383748,0.057869125,0
Rajpur,21.2380912,81.6336993,511.3375433,0.114257165,0
Rohtas,24.9394142,84.0197031,347.7498005,0.165312854,0
Sanjhauli,25.1605512,84.1778629,355.7807635,0.14248035,0
Sasaram,24.9509656,84.0148733,349.0171848,0.097608723,0
Sheosagar,24.8996138,83.916064,351.8964273,0.147605514,0
Suryapura,25.2775693,84.2364012,362.4498378,0.127900738,0
Tilauthu,24.8096,84.0899,332.4372375,0.074779273,0
Bhabua,25.0763482,83.6335978,386.0047933,0.235749147,0
Mohania,25.1676579,83.621622,393.946897,0.130180005,0
Chainpur,23.1869375,84.2891244,219.4155146,0.240643002,0
Kudra,25.1265992,83.7631004,380.6724046,0.145790837,0
Durgawati,25.2413674,83.4749527,410.2312511,0.16997022,0
Chand,25.1097137,83.4072085,405.2661207,0.257366187,0
Ramgarh,23.693479,85.5215989,143.5012666,0.206054139,0
Nuaon,25.3236216,83.8192809,392.89748,0.127324196,0
Bhagwanpur,25.8503701,85.2857846,371.6219027,0.218645124,0
Rampur,28.7934728,79.1845806,990.3295324,0.037292741,0
Adhaura,24.7314388,83.6284216,360.9678158,0.316126742,0
Badasahi,18.5086926,73.8488417,1379.981719,0.099504899,0
Bahalda,22.3588473,86.1419483,39.11921911,0.216673985,0
Bangriposi,22.1464821,86.5400764,59.52328918,0.138392951,0
Baripada,21.9342456,86.7308825,88.90373604,0.076198098,0
Betnoti,21.7418915,86.8456965,113.3290912,0.084462686,0
Bijatala,22.2084644,86.2960343,49.71357849,0.197947882,0
Bisoi,22.12876,86.378252,58.31324933,0.221325614,0
Gopabandhunagar,20.2775,85.8055,270.0741806,0.19296879,0
Jamda,22.2708491,86.0585033,52.04218306,0.205658689,0
Jashipur,21.9402392,86.1241542,82.59195805,0.176710697,0
Kaptipada,21.5322423,86.5259147,125.8674293,0.160135816,0
Karanjia,21.7863762,86.0660529,100.7017204,0.17694123,0
Khunta,21.707855,86.6225383,108.6945498,0.134835656,0
Kuliana,22.0674204,86.6493771,71.91858115,0.214026243,0
Kusumi,19.2658977,84.7376776,412.1712951,0.214500656,0
Morada,26.9999301,77.2082662,1041.204634,0.189608495,0
Rairangpur,22.215745,86.2325462,50.09099673,0.234782172,0
Raruan,21.9061403,85.8751847,96.39158255,0.191101404,0
Rasgovindpur,21.8072884,87.0475976,118.1881172,0.240875509,0
Samakhunta,21.9603,86.6226,81.87640945,0.119737038,0
Saraskana,22.2440445,86.5892333,51.5821832,0.184518387,0
Sukruli,21.9256476,85.8598405,95.35643278,0.199741659,0
Suliapada,22.0064032,86.9181308,92.51858612,0.210444189,0
Thakurmunda,21.5693933,86.1046982,123.101158,0.211603282,0
Tiring,22.4719149,86.081029,34.27836169,0.225237969,0
Udala,21.5831418,86.5832677,121.2911977,0.237360508,0
Baisinga,21.6702709,86.9154963,123.7110252,0.161728801,0
Jharpokharia,22.24112,86.5729759,51.10320763,0.190249201,0
Sharata,21.409006,86.3943057,138.3517134,0.209648446,0
Muruda,21.8496491,86.9696141,109.6273112,0.121055649,0
Gorumahisani,22.3263979,86.3096182,36.52634638,0.317388985,0
Balisankara,22.3464235,84.0452506,239.3543578,0.190151508,0
Bargaon,21.2987105,76.3212923,1044.953287,0.108205352,0
Bisra,22.2478236,84.9978404,146.2115952,0.238172906,0
Bonai,27.5617,78.2398,981.9290267,0.14552874,0
Gurundia,21.8941151,84.6647122,192.9711882,0.287623531,0
Hemgir,21.9628279,83.7108967,282.2612857,0.257533251,0
Koida,21.9204337,85.2769233,137.3014221,0.213954831,0
Kuarmunda,22.3047011,84.7797936,166.0551984,0.26818959,0
Kutra,22.2639188,84.4320482,201.9237126,0.209645842,0
Lahunipada,21.8836,84.9375,168.7673828,0.196108877,0
Lathikata,22.1421533,84.9429037,155.5381092,0.277950219,0
Lephripada,22.1146,83.8108,267.9849991,0.241915167,0
Nuagaon,20.1380675,84.0140446,369.7672897,0.063356224,0
Rajgangpur,22.1861154,84.5835067,188.9888134,0.211836454,0
Subdega,22.2924612,84.1056671,234.2080358,0.228487112,0
Sundargarh,22.0605153,83.9359154,256.9834777,0.184833911,0
Tangarpali,22.0895481,83.9439536,255.3491096,0.220338425,0
Kendujhar,21.5892323,85.6687841,137.5738408,0.243709,0
Anandapur,21.3334131,86.0872147,149.1961282,0.184049217,0
Banspal,21.3908,85.373,172.7976432,0.25042085,0
Champua,22.0058013,85.5851712,106.7025984,0.248025043,0
Ghasipura,21.2933331,86.0260264,154.824802,0.28661277,0
Ghatagaon,21.3927559,85.894962,147.7812496,0.223243029,0
Harichandanpur,21.3269269,85.7947889,158.1887945,0.137387263,0
Hatadihi,21.2096,86.2717,160.6652526,0.179466724,0
Jhumpura,21.8880424,85.5860606,115.8929044,0.233033869,0
Joda,22.0324027,85.4566847,115.0005057,0.263353077,0
Patna,25.6093239,85.1235252,351.587992,0.070584246,0
Saharpada,21.628839,85.899802,122.9762545,0.162975629,0
Telkoi,21.2982812,85.4411296,177.4542437,0.274642603,0
Bandhugaon,18.9544261,83.2537931,522.2306049,0.117726473,0
Boipariguda,18.7490297,82.3291595,602.7839574,0.145058512,0
Borigumma,19.048454,82.553591,562.3879041,0.155085244,0
Dasamantapur,19.0505066,82.9114924,536.7863889,0.159844586,0
Jeypore,18.8812875,82.552768,575.9843649,0.095810952,0
Koraput,18.7232023,82.6100596,585.0594353,0.098547694,0
Kotpad,19.0711224,82.3444368,576.0711316,0.255694766,0
Kundra,22.025466,85.4156751,118.8555279,0.206062723,0
Lamtaput,18.6184052,82.5930883,595.0552321,0.107737412,0
Laxmipur,28.8321176,78.8519883,1017.492102,0.131059987,0
Nandapur,18.5860435,82.7543189,586.9642569,0.130092764,0
Narayanpatna,18.8789148,83.1681889,534.3778265,0.085700535,0
Pottangi,18.5623321,82.9639413,575.4036812,0.080827231,0
Semiliguda,18.706443,82.8512283,570.1348488,0.052018877,0
Rayagada,19.4426698,83.5873053,457.8774687,0.077815196,0
Gunupur,19.0714045,83.8148798,477.4995822,0.068314751,0
Bissamcuttack,19.5136,83.5064224,457.0859501,0.07272506,0
Kashipur,29.2117573,78.9617306,1037.715994,0.064937779,0
Kalyanasinghpur,19.5091,83.3081,471.0048756,0.129192078,0
Kolnara,19.2466,83.4564,483.5079754,0.128589677,0
Ramanaguda,19.2124796,83.6756523,472.7787453,0.112144219,0
Padmapur,21.0487782,83.0961353,380.3519573,0.179754346,0
Gudari,19.3783608,83.7803748,451.3849931,0.046435902,0
Muniguda,19.627061,83.4887531,448.6641374,0.171355785,0
Chandrapur,20.0967555,79.5045475,763.6867276,0.254717357,0
Purulia,23.2020967,86.3228988,61.17141062,0.227784486,0
Hura,23.3277942,86.5811178,78.67131487,0.202195626,0
Para,23.5128504,86.4804036,96.55999937,0.185857283,0
Raghunathpur,20.3519157,86.1499006,256.6730423,0.256132261,0
Neturia,23.6353248,86.7893242,118.0877039,0.203148454,0
Santuri,23.5264378,86.8562939,110.0331412,0.115281718,0
Barakar,23.9484434,86.6231257,146.7369718,0.13971077,0
Kashipur,29.2117573,78.9617306,1037.715994,0.064937779,0
Hura,23.3277942,86.5811178,78.67131487,0.202195626,0
Manbazar I,23.061389,86.664167,55.61063023,0.187431573,0
Manbazar II,22.899423,86.633034,39.82951298,0.18092845,0
Bandwan,22.8751,86.506,29.37791371,0.171714507,0
Barabazar,23.0282372,86.3626357,41.78453613,0.193457304,0
Balarampur,23.1145293,86.2257596,52.95476194,0.244646277,0
Baghmundi,23.1903848,86.0576364,66.94529756,0.182067862,0
Jhalda I,23.255556,85.886389,82.23757873,0.283863904,0
Jhalda II,23.416111,86.094444,88.88007926,0.18325987,0
Arsha,23.2807928,86.1879186,71.83145781,0.221774465,0
Joypur,27.2681601,95.3895606,1045.22441,0.052677792,0
Puncha,23.1584939,86.6505788,64.05308126,0.204205391,0
Bundwan,22.8284104,86.5378731,27.33990129,0.198787917,0
Bankura I,23.25,87.07,99.12092492,0.073790561,0
Bankura II,23.25528,87.094,101.3444002,0.113358036,0
Barjora,23.4258934,87.289849,128.8902647,0.117435191,0
Chhatna,23.3115,86.9669,96.62619788,0.12630157,0
Gangajalghati,23.4223016,87.1153817,115.9088009,0.094751363,0
Mejia,23.5730629,87.1074838,128.2691214,0.088009464,0
Onda,23.1425641,87.1986577,102.4615623,0.181600565,0
Saltora,23.5217886,86.935786,113.6353083,0.123481112,0
Indpur,23.1568159,86.9227264,81.03535837,0.092260693,0
Khatra,22.975325,86.8539608,62.76958165,0.068739464,0
Hirbandh,23.0800779,86.8149526,67.18713038,0.246113631,0
Ranibandh,22.8636108,86.7817024,49.963981,0.182236624,0
Raipur,21.2380912,81.6336993,511.3375433,0.114257165,0
Sarenga,22.7779646,87.0320169,71.1789711,0.140989214,0
Simlapal,22.9108794,87.0707273,79.13076963,0.123213399,0
Taldangra,23.0191903,87.0997513,86.84159654,0.112315741,0
Bishnupur,23.0757335,87.3146343,109.3232188,0.163286866,0
Indas,23.1460946,87.6265327,141.6623476,-0.004705679,0
Joypur,27.2681601,95.3895606,1045.22441,0.052677792,0
Patrasayer,23.2163926,87.5133532,134.4844118,0.097833348,0
Kotulpur,23.0112211,87.5960611,133.6334404,0.055983244,0
Sonamukhi,23.3034587,87.4139034,130.638165,0.101491015,0
Jaypur,23.0527293,87.4434688,120.4115538,0.092635268,0
Binpur I,23.4703235,75.6962029,1093.661038,0.163272718,0
Binpur II,23.4703235,75.6962029,1093.661038,0.163272718,0
Chandrakona I,22.73,87.58,126.3225952,0.145705099,0
Chandrakona II,22.73,87.52,120.1823959,0.170784412,0
Dantan I,21.911,87.27,125.4242313,0.202614915,0
Dantan II,21.8912,87.375,135.1274867,0.155241431,0
Daspur I,22.6,87.722,140.7845948,0.18082862,0
Daspur II,22.605,87.72,140.5549159,0.170674117,0
Debra,22.4392393,87.5915109,129.5355342,0.252033697,0
Garbeta I,22.86,87.36,105.9509706,0.167994133,0
Garbeta II,22.71,87.171,84.31886005,0.136464538,0
Garbeta III,22.71694,87.33952,101.6158613,0.085719419,0
Ghatal,22.6823015,87.699166,138.3174634,0.072194977,0
Gopiballavpur I,22.203779,86.960487,80.05408371,0.041214458,0
Gopiballavpur II,22.224939,86.866463,71.15115362,0.187578314,0
Jamboni,22.4329695,86.8452377,56.28097784,0.09565315,0
Jhargram,22.4538505,86.9949477,69.67411111,0.151305638,0
Keshiary,22.1310978,87.2311939,107.4351718,0.226341743,0
Keshpur,22.562897,87.4592349,114.1459173,0.192071554,0
Kharagpur I,24.0165441,77.2117281,945.2276827,0.187466796,0
Kharagpur II,24.0165441,77.2117281,945.2276827,0.187466796,0
Midnapore,22.4207025,87.3269963,103.451725,0.164840777,0
Mohanpur,23.9429191,91.3346993,528.723337,0.202426204,0
Narayangarh,22.1144279,87.4061269,123.8496305,0.148595159,0
Nayagram,22.0271372,87.1135335,104.7827875,0.285516574,0
Pingla,22.2727553,87.6028597,135.3460981,0.175557999,0
Sabang,22.1643602,87.6012919,139.4755318,0.213979875,0
Salbani,22.577903,87.2250615,90.05037982,0.235456833,0
Sankrail,22.5574675,88.2045729,190.51528,0.154218966,0
Jhargram,22.4538505,86.9949477,69.67411111,0.151305638,0
Binpur I,23.4703235,75.6962029,1093.661038,0.163272718,0
Binpur II,23.4703235,75.6962029,1093.661038,0.163272718,0
Gopiballavpur I,22.203779,86.960487,80.05408371,0.041214458,0
Gopiballavpur II,22.224939,86.866463,71.15115362,0.187578314,0
Jamboni,22.4329695,86.8452377,56.28097784,0.09565315,0
Nayagram,22.0271372,87.1135335,104.7827875,0.285516574,0
Sankrail,22.5574675,88.2045729,190.51528,0.154218966,0
Bolpur Sriniketan,23.6658103,87.7042745,178.37917,0.090841238,0
Dubrajpur,23.7911288,87.3780882,164.4120777,0.130603076,0
Illambazar,23.6902958,87.5128946,165.5556092,0.001778862,0
Khoyrasol,23.8152529,87.2398729,157.9639237,0.182899552,0
Labpur,23.8045457,87.8405648,198.8889028,0.129941814,0
Mayureswar I,24.005,87.6919,203.3311182,0.10454848,0
Mayureswar II,24.0706,87.5569,200.0007966,0.082234773,0
Mohammad Bazar,24.0362398,87.5911209,199.2136084,0.151591226,0
Murarai I,24.376889,87.851111,245.2289364,0.066081547,0
Murarai II,24.425833,87.960167,256.4510236,0.114881026,0
Nalhati I,24.3051,87.8189,236.9787259,0.199677416,0
Nalhati II,24.2958,87.9404,244.2210444,0.075879506,0
Nanoor,23.6645281,87.8510947,190.1685853,0.035052065,0
Rajnagar,26.3859638,86.1542008,415.6104249,0.157647222,0
Rampurhat I,24.186056,87.781944,224.4442534,0.101460216,0
Rampurhat II,24.1427,87.8413,224.8699251,0.107326301,0
Sainthia,23.9496876,87.6829354,198.2162293,0.128958656,0
Suri I,9.8163355,72.5357723,2049.527449,0.2532,0
Suri II,9.8163355,72.5357723,2049.527449,0.1554,0
Jagdalpur,19.0870758,82.0235715,599.4034475,0.082780345,0
Bakawand,19.3738,82.0869,573.4000921,0.166726583,0
Lohandiguda,19.1653061,81.7433345,615.9261802,0.121729579,0
Tokapal,19.0111236,81.8903303,615.460251,0.089392433,0
Bastanar,18.98978,81.5428448,644.6095138,0.119516646,0
Darbha,18.8690912,81.8699084,627.6926702,0.127147743,0
Bastar,19.1191282,81.8291865,612.3612581,0.135750583,0
Dantewada,18.8640648,81.3833947,666.4425848,0.222156709,0
Geedam,18.4533845,81.6770625,674.3324198,0.19581397,0
Katekalyan,18.8007541,81.6423225,650.5008589,0.13832257,0
Kuwakonda,18.72689,81.43482,672.2833055,0.098834343,0
Kanker,20.2692747,81.4932111,568.2680415,0.165646086,0
Charama,20.4929943,81.3663339,568.623266,0.140430021,0
Narharpur,24.6055523,80.5905285,625.6921178,0.132590862,0
Bhanupratappur,20.3101125,81.0720623,605.11662,0.117093178,0
Koylibeda,20.13,80.89,631.120214,0.210404322,0
Durgukondal,20.2722,81.4931,568.1222371,0.171349841,0
Antagarh,20.0989713,81.158073,608.0419477,0.141236975,0
Sukma,18.2665423,81.2925234,717.9297054,0.191433446,0
Chhindgarh,18.597992,81.8518507,649.9218312,0.151777484,0
Konta,23.4997567,76.4443686,1017.636442,0.179955527,0
Bijapur,18.7935679,80.815939,717.8809462,0.107190907,0
Bhopalpattnam,19.0000057,80.403874,739.472681,0.382222376,0
Usur,18.4871389,80.745778,744.8899296,0.131489405,0
Bhairamgarh,19.0073703,81.0599828,683.0413548,0.079169737,0
Narayanpur,19.5842032,81.1136986,641.4494443,0.163408097,0
Orchha,25.3528706,78.6402465,838.6810528,0.158220565,0
Raigarh,22.2361795,83.3529534,311.6197515,0.169114822,0
Pusaur,21.7539993,83.3822608,321.5894264,0.20327278,0
Baramkela,21.5646639,83.2622051,340.4604532,0.205889992,0
Kharsiya,21.97,83.12,340.9714175,0.157880185,0
Gharghoda,22.1674127,83.3485457,313.3684979,0.161167593,0
Tamnar,22.0901589,83.4409806,305.735478,0.096066765,0
Lailunga,22.3911901,83.5818815,285.9565857,0.168235242,0
Dharamjaigarh,22.4596261,83.2089182,323.4149934,0.19584484,0
Sarangarh,21.5856358,83.0782699,357.4305135,0.159132552,0
Jashpur,22.770251,83.9708013,244.5428909,0.201753108,0
Kunkuri,22.7419869,83.9494993,246.6034958,0.228040422,0
Duldula,22.7140045,84.1033888,230.7416735,0.207353015,0
Farsabahar,22.5164025,83.850317,257.2341724,0.160046851,0
Bagicha,31.8654998,77.1703347,1367.291632,0.095892186,0
Patthalgaon,22.57,83.47,295.9177406,0.112866582,0
Ambikapur,23.1226343,83.1981886,327.2202438,0.105238511,0
Balrampur,27.4476988,82.3956245,665.5282945,0.127966151,0
Batouli,22.9498872,83.4275638,301.5318291,0.178673266,0
Bhaiyathan,23.3935879,82.8514623,367.5290782,0.138590477,0
Lakhanpur,21.7538399,83.7830482,282.6701412,0.219943225,0
Lundra,23.1238636,83.4073877,306.1073012,0.175346679,0
Mainpat,22.7964591,83.3061887,312.740551,0.125108946,0
Oudgi,23.4782837,82.8044486,374.3048612,0.199623063,0
Pratappur,24.3065742,84.61574,255.2625795,0.1064291,0
Premnagar,29.6895427,76.9649718,1219.607575,0.03784833,0
Rajpur,21.2380912,81.6336993,511.3375433,0.114257165,0
Ramanujganj,23.806378,83.6998108,299.7801118,0.094834955,0
Ramanujnagar,23.1482128,82.7192831,376.0992989,0.189958684,0
Samri,23.3932432,83.8667168,267.2861594,0.089259002,0
Shankargarh,25.5348289,77.9591724,909.9223023,0.156336817,0
Sitapur,27.5026747,80.8335139,774.17007,0.182376936,0
Surajpur,23.3577769,82.9761277,354.25064,0.117673418,0
Udaypur,21.7563583,75.6719494,1103.710814,0.104652592,0
Wadrafnagar,23.7595024,83.2096689,343.859501,0.168930904,0
Korba,22.5198217,82.6350029,381.8355707,0.107756021,0
Katghora,22.5096189,82.5507586,390.5365938,0.170063261,0
Pali,25.455221,73.419389,1348.931037,0.14165454,0
Kartala,22.2994203,82.9580426,350.8691722,0.161312598,0
Poundi-Uproda,22.6042651,82.5544023,389.7418863,0.149052357,0
Banki-Mongra,22.97925,88.374769,210.5288539,0.139834469,0
Chhuri,22.061506,77.8456897,877.0522558,0.243886487,0
Balco,28.6301549,77.3058835,1123.586112,0.101713155,0
Dharamjaigarh,22.4596261,83.2089182,323.4149934,0.19584484,0
Lemru,22.65,82.833,361.0531006,0.227397108,0
Pasaan,23.16,81.9569,453.6263563,0.2162604,0
Bilaspur,22.1638486,82.1365923,436.6661771,0.156771099,0
Bilha,23.5104001,80.1458257,641.8702514,0.145200672,0
Takhatpur,23.585329,80.8632398,570.7174436,0.157329999,0
Masturi,21.9918398,82.2692084,426.277064,0.168288898,0
Kota,25.1737019,75.8574194,1102.574598,0.074073508,0
Pathariya,23.8129755,78.7855383,783.6625784,0.138336283,0
Sargaon,26.0709311,74.7396254,1235.509424,0.142772115,0
Beltara,22.2703451,82.2652773,422.0291388,0.134739788,0
Ratanpur,25.3143027,86.5421536,296.6007855,0.142517438,0
Mulmula,33.2519135,75.2783203,1601.556153,0.077203023,0
Pendra Road,22.7557672,81.8990005,456.8571969,0.153670056,0
Raipur,21.2380912,81.6336993,511.3375433,0.114257165,0
Dharsiwa,21.4164844,81.6730424,501.3975778,0.150621557,0
Tilda,21.4682857,81.8680968,480.4062929,0.120691429,0
Arang,21.1986343,81.9659898,480.3654697,0.125475443,0
Abhanpur,28.0150138,76.852262,1124.931379,0.145752366,0
Kharora,21.4004069,81.9263837,476.8859287,0.1266877,0
Mandir Hasaud,21.2260053,81.7737601,498.0594275,0.194503633,0
Gobra Nawapara,20.9675515,81.8588705,500.1788748,0.158204131,0
Simga,21.6275707,81.7031289,492.1163969,0.181755863,0
Fingeshwar,20.968842,82.032008,483.597923,0.13607322,0
